{
  "cinemas" : [ {
    "ID" : "0000000001",
    "name" : "CP Alcazar",
    "phoneNumber" : "016194400",
    "emailAddress" : "",
    "address" : "Av. Santa Cruz 814-816",
    "secondAddress" : "Miraflores Lima Lima",
    "city" : "Lima",
    "latitude" : "-12.1104",
    "longitude" : "-77.0376",
    "description" : "CINEPLANET ALCAZAR",
    "showroomQuantity" : 8,
    "formattedCinemaName" : "cp-alcazar",
    "services" : [ ],
    "formatsRate" : [ ],
    "formats" : [ "2D", "REGULAR", "3D" ],
    "img" : "https://cdnpe.cineplanet.com.pe/assets/77a68319-ab16-4888-b287-7a8235d6fb52",
    "loyaltyCode" : "4",
    "showTabsPrime" : false
  }, {
    "ID" : "0000000037",
    "name" : "CP Arequipa Mall Plaza",
    "phoneNumber" : "016194400",
    "emailAddress" : "",
    "address" : "Av. Ejercito 793 Cayma",
    "secondAddress" : "Cayma Arequipa Arequipa",
    "city" : "Arequipa",
    "latitude" : "-16.3904",
    "longitude" : "-71.5467",
    "description" : "CINEPLANET AREQUIPA MALL PLAZA",
    "showroomQuantity" : 9,
    "formattedCinemaName" : "cp-arequipa-mall-plaza",
    "services" : [ ],
    "formatsRate" : [ ],
    "formats" : [ "2D", "3D", "REGULAR" ],
    "img" : "https://cdnpe.cineplanet.com.pe/assets/92264a76-78f6-44ad-b1c4-291a0f9d87dd",
    "loyaltyCode" : "8",
    "showTabsPrime" : false
  }, {
    "ID" : "0000000051",
    "name" : "CP Arequipa Paseo Central",
    "phoneNumber" : "016194400",
    "emailAddress" : "",
    "address" : "Av. Arturo Ibañez S/N,",
    "secondAddress" : "Arequipa Arequipa",
    "city" : "Arequipa",
    "latitude" : "-16.4242",
    "longitude" : "-71.5465",
    "description" : "CINEPLANET AREQUIPA PASEO CENTRAL",
    "showroomQuantity" : 5,
    "formattedCinemaName" : "cp-arequipa-paseo-central",
    "services" : [ ],
    "formatsRate" : [ ],
    "formats" : [ "2D", "REGULAR" ],
    "img" : "https://cdnpe.cineplanet.com.pe/assets/93f48567-0768-4837-982b-3ffc23a4ed07",
    "loyaltyCode" : "38",
    "showTabsPrime" : false
  }, {
    "ID" : "0000000038",
    "name" : "CP Arequipa Real Plaza",
    "phoneNumber" : "016194400",
    "emailAddress" : "",
    "address" : "Av. Ejercito 1009 Cayma",
    "secondAddress" : "Cayma Arequipa Arequipa",
    "city" : "Arequipa",
    "latitude" : "-16.3891",
    "longitude" : "-71.5494",
    "description" : "CINEPLANET AREQUIPA REAL PLAZA",
    "showroomQuantity" : 6,
    "formattedCinemaName" : "cp-arequipa-real-plaza",
    "services" : [ ],
    "formatsRate" : [ ],
    "formats" : [ "2D", "REGULAR", "3D" ],
    "img" : "https://cdnpe.cineplanet.com.pe/assets/53d13688-8a99-4eb5-a887-c963ac4d1f43",
    "loyaltyCode" : "21",
    "showTabsPrime" : false
  }, {
    "ID" : "0000000004",
    "name" : "CP Brasil",
    "phoneNumber" : "016194400",
    "emailAddress" : "",
    "address" : "Av. Brasil 714 - 792 Piso 3  ",
    "secondAddress" : "Breña Lima Lima",
    "city" : "Lima",
    "latitude" : "-12.0666",
    "longitude" : "-77.0472",
    "description" : "CINEPLANET BRASIL",
    "showroomQuantity" : 8,
    "formattedCinemaName" : "cp-brasil",
    "services" : [ {
      "name" : "Estacionamiento",
      "icon" : "parking",
      "description" : "Acceso por calle Juan Pablo Fernandini"
    }, {
      "name" : "Accesibilidad",
      "icon" : "wheel_chair_light",
      "description" : "El cine cuenta con ascensores y sillas reservadas para todas las personas que posean alguna dificultad de movilidad"
    } ],
    "formatsRate" : [ ],
    "formats" : [ "2D", "REGULAR", "3D" ],
    "img" : "https://cdnpe.cineplanet.com.pe/assets/39a913aa-e8a7-4c46-8378-b926c6a79096",
    "loyaltyCode" : "31",
    "showTabsPrime" : false
  }, {
    "ID" : "0000000039",
    "name" : "CP Cajamarca",
    "phoneNumber" : "016194400",
    "emailAddress" : "",
    "address" : "Av. Vía de Evitamiento Norte",
    "secondAddress" : "Cajamarca Cajamarca Cajamarca",
    "city" : "Cajamarca",
    "latitude" : "-7.1547",
    "longitude" : "-78.5053",
    "description" : "CINEPLANET CAJAMARCA",
    "showroomQuantity" : 5,
    "formattedCinemaName" : "cp-cajamarca",
    "services" : [ ],
    "formatsRate" : [ ],
    "formats" : [ "2D", "REGULAR", "3D" ],
    "img" : "https://cdnpe.cineplanet.com.pe/assets/d42744e1-44d1-4a3b-99cf-03a390b90789",
    "loyaltyCode" : "26",
    "showTabsPrime" : false
  }, {
    "ID" : "0000000054",
    "name" : "CP Canto Grande",
    "phoneNumber" : "016194400",
    "emailAddress" : "",
    "address" : "AV CANTO GRANDE MZ.A LT.15",
    "secondAddress" : "San Juan de Lurigancho Lima",
    "city" : "Lima",
    "latitude" : "-11.9787",
    "longitude" : "-77.0103",
    "description" : "CINEPLANET CANTO GRANDE",
    "showroomQuantity" : 3,
    "formattedCinemaName" : "cp-canto-grande",
    "services" : [ ],
    "formatsRate" : [ ],
    "formats" : [ "2D", "REGULAR" ],
    "img" : "https://cdnpe.cineplanet.com.pe/assets/90233880-a4c6-45d0-810a-89bcdc0c6326",
    "loyaltyCode" : "41",
    "showTabsPrime" : false
  }, {
    "ID" : "0000000007",
    "name" : "CP Centro Civico",
    "phoneNumber" : "016194400",
    "emailAddress" : "",
    "address" : "Av. Inca Garcilazo de la Vega ",
    "secondAddress" : "Cercado Lima Lima",
    "city" : "Lima",
    "latitude" : "-12.0569",
    "longitude" : "-77.038",
    "description" : "CINEPLANET CENTRO CIVICO",
    "showroomQuantity" : 6,
    "formattedCinemaName" : "cp-centro-civico",
    "services" : [ ],
    "formatsRate" : [ ],
    "formats" : [ "2D", "REGULAR", "3D" ],
    "img" : "https://cdnpe.cineplanet.com.pe/assets/791cd300-a51f-4ab1-a3e3-0b1e2b36909f",
    "loyaltyCode" : "18",
    "showTabsPrime" : false
  }, {
    "ID" : "0000000006",
    "name" : "CP Centro Jr. De La Unión",
    "phoneNumber" : "016194400",
    "emailAddress" : "",
    "address" : "Jr. De la Unión 819  ",
    "secondAddress" : "Cercado Lima Lima",
    "city" : "Lima",
    "latitude" : "-12.0502",
    "longitude" : "-77.0341",
    "description" : "CINEPLANET CENTRO JR DE LA UNION",
    "showroomQuantity" : 8,
    "formattedCinemaName" : "cp-centro-jr-de-la-union",
    "services" : [ ],
    "formatsRate" : [ ],
    "formats" : [ "2D", "REGULAR", "3D" ],
    "img" : "https://cdnpe.cineplanet.com.pe/assets/1c01e525-5b36-45b9-839b-9b5dee84ef9c",
    "loyaltyCode" : "6",
    "showTabsPrime" : false
  }, {
    "ID" : "0000000055",
    "name" : "CP Chiclayo Mall Aventura",
    "phoneNumber" : "016194400",
    "emailAddress" : "",
    "address" : "AV. PANAMERICANA 639 -INT 01",
    "secondAddress" : "Mall Aventura - Chiclayo",
    "city" : "Chiclayo",
    "latitude" : "-6.7631",
    "longitude" : "-79.8616",
    "description" : "CINEPLANET CHICLAYO MALL AVENTURA",
    "showroomQuantity" : 8,
    "formattedCinemaName" : "cp-chiclayo-mall-aventura",
    "services" : [ ],
    "formatsRate" : [ ],
    "formats" : [ "2D", "3D", "REGULAR" ],
    "img" : "https://cdnpe.cineplanet.com.pe/assets/f860457a-a2cf-4024-897d-487ff95fe8f4",
    "loyaltyCode" : "43",
    "showTabsPrime" : false
  }, {
    "ID" : "0000000008",
    "name" : "CP Chiclayo Real Plaza",
    "phoneNumber" : "016194400",
    "emailAddress" : "",
    "address" : "Av. Miguel de Cervantes 300",
    "secondAddress" : "Chiclayo Chiclayo Chiclayo",
    "city" : "Chiclayo",
    "latitude" : "-6.7789",
    "longitude" : "-79.8333",
    "description" : "CINEPLANET CHICLAYO REAL PLAZA",
    "showroomQuantity" : 9,
    "formattedCinemaName" : "cp-chiclayo-real-plaza",
    "services" : [ ],
    "formatsRate" : [ ],
    "formats" : [ "2D", "REGULAR", "3D" ],
    "img" : "https://cdnpe.cineplanet.com.pe/assets/8e49f845-7ed8-47a2-9d0f-2c6c36144788",
    "loyaltyCode" : "13",
    "showTabsPrime" : false
  }, {
    "ID" : "0000000009",
    "name" : "CP Comas",
    "phoneNumber" : "016194400",
    "emailAddress" : "",
    "address" : "Av. Túpac Amaru 3840 2do P",
    "secondAddress" : "Comas Lima Lima",
    "city" : "Lima",
    "latitude" : "-11.9333",
    "longitude" : "-77.0451",
    "description" : "CINEPLANET COMAS",
    "showroomQuantity" : 6,
    "formattedCinemaName" : "cp-comas",
    "services" : [ ],
    "formatsRate" : [ ],
    "formats" : [ "2D", "3D", "REGULAR" ],
    "img" : "https://cdnpe.cineplanet.com.pe/assets/12bed0f2-6899-464b-b3dd-d3817f1d7c2c",
    "loyaltyCode" : "14",
    "showTabsPrime" : false
  }, {
    "ID" : "0000000040",
    "name" : "CP Cusco",
    "phoneNumber" : "016194400",
    "emailAddress" : "",
    "address" : "Av. Collasuyo 2964 Lote A",
    "secondAddress" : "Cusco Cusco Cusco",
    "city" : "Cusco",
    "latitude" : "-13.5232",
    "longitude" : "-71.9499",
    "description" : "CINEPLANET CUSCO",
    "showroomQuantity" : 9,
    "formattedCinemaName" : "cp-cusco",
    "services" : [ ],
    "formatsRate" : [ ],
    "formats" : [ "2D", "REGULAR" ],
    "img" : "https://cdnpe.cineplanet.com.pe/assets/05bbc0dd-b639-4c6a-ba26-f074cf4dff33",
    "loyaltyCode" : "27",
    "showTabsPrime" : false
  }, {
    "ID" : "0000000053",
    "name" : "CP El Polo",
    "phoneNumber" : "016194400",
    "emailAddress" : "",
    "address" : "AV. El Polo 695 ",
    "secondAddress" : "Surco Lima Lima",
    "city" : "Lima",
    "latitude" : "-11.9886",
    "longitude" : "-76.8189",
    "description" : "CINEPLANET PURUCHUCO",
    "showroomQuantity" : 7,
    "formattedCinemaName" : "cp-el-polo",
    "services" : [ ],
    "formatsRate" : [ ],
    "formats" : [ "2D", "REGULAR", "3D" ],
    "img" : "https://cdnpe.cineplanet.com.pe/assets/17b32348-ac0f-4387-944a-37a66c439e3c",
    "loyaltyCode" : "40",
    "showTabsPrime" : false
  }, {
    "ID" : "0000000011",
    "name" : "CP Guardia Civil",
    "phoneNumber" : "016194400",
    "emailAddress" : "",
    "address" : "Guardia Civil 1035 Chorrillos",
    "secondAddress" : "Chorrillos Lima Lima",
    "city" : "Lima",
    "latitude" : "-12.1728",
    "longitude" : "-76.9926",
    "description" : "CINEPLANET CHORRILLOS",
    "showroomQuantity" : 6,
    "formattedCinemaName" : "cp-guardia-civil",
    "services" : [ ],
    "formatsRate" : [ ],
    "formats" : [ "2D", "3D", "REGULAR" ],
    "img" : "https://cdnpe.cineplanet.com.pe/assets/361a2d7a-e3e4-46f9-a632-72e04fc5855e",
    "loyaltyCode" : "32",
    "showTabsPrime" : false
  }, {
    "ID" : "0000000041",
    "name" : "CP Huancayo Real Plaza",
    "phoneNumber" : "016194400",
    "emailAddress" : "",
    "address" : "Av. Ferrocarril Cuadra 8 S/N ",
    "secondAddress" : "Huancayo Huancayo Huancayo",
    "city" : "Huancayo",
    "latitude" : "-12.0669",
    "longitude" : "-75.2051",
    "description" : "CINEPLANET HUANCAYO",
    "showroomQuantity" : 9,
    "formattedCinemaName" : "cp-huancayo-real-plaza",
    "services" : [ ],
    "formatsRate" : [ ],
    "formats" : [ "2D", "REGULAR", "3D" ],
    "img" : "https://cdnpe.cineplanet.com.pe/assets/83f64f14-e68c-44cf-b5f6-99af32452a8f",
    "loyaltyCode" : "17",
    "showTabsPrime" : false
  }, {
    "ID" : "0000000042",
    "name" : "CP Huanuco Real Plaza",
    "phoneNumber" : "016194400",
    "emailAddress" : "",
    "address" : "Jr. Independencia s/n ",
    "secondAddress" : "Huánuco Huánuco Huánuco",
    "city" : "Huánuco",
    "latitude" : "-9.9194",
    "longitude" : "-76.241",
    "description" : "CINEPLANET HUANUCO",
    "showroomQuantity" : 5,
    "formattedCinemaName" : "cp-huanuco-real-plaza",
    "services" : [ ],
    "formatsRate" : [ ],
    "formats" : [ "2D", "3D", "REGULAR" ],
    "img" : "https://cdnpe.cineplanet.com.pe/assets/6b9b157f-0322-43cc-beea-98e70ce27ca2",
    "loyaltyCode" : "24",
    "showTabsPrime" : false
  }, {
    "ID" : "0000000014",
    "name" : "CP Juliaca",
    "phoneNumber" : "016194400",
    "emailAddress" : "",
    "address" : "Calle Tumbes 395 - San Roman",
    "secondAddress" : "Juliaca",
    "city" : "Juliaca",
    "latitude" : "-15.4949",
    "longitude" : "-70.1305",
    "description" : "CINEPLANET JULIACA",
    "showroomQuantity" : 5,
    "formattedCinemaName" : "cp-juliaca",
    "services" : [ ],
    "formatsRate" : [ ],
    "formats" : [ "2D", "REGULAR", "3D" ],
    "img" : "https://cdnpe.cineplanet.com.pe/assets/eb19ccc6-1c07-4ec4-9d55-abbfaa5ec365",
    "loyaltyCode" : "3",
    "showTabsPrime" : false
  }, {
    "ID" : "0000000015",
    "name" : "CP La Molina",
    "phoneNumber" : "016194400",
    "emailAddress" : "",
    "address" : "Av. Raúl Ferrero 1205 3er P",
    "secondAddress" : "La Molina Lima Lima",
    "city" : "Lima",
    "latitude" : "-12.091",
    "longitude" : "-76.9497",
    "description" : "CINEPLANET LA MOLINA",
    "showroomQuantity" : 8,
    "formattedCinemaName" : "cp-la-molina",
    "services" : [ ],
    "formatsRate" : [ ],
    "formats" : [ "2D", "REGULAR", "3D" ],
    "img" : "https://cdnpe.cineplanet.com.pe/assets/6354712b-d032-4c86-a16f-ef55527a0160",
    "loyaltyCode" : "11",
    "showTabsPrime" : false
  }, {
    "ID" : "0000000016",
    "name" : "CP Lurin",
    "phoneNumber" : "016194400",
    "emailAddress" : "",
    "address" : "S/N San Pedro Parcela B-43",
    "secondAddress" : "Lurín Lima Lima (Ref. Antigua ",
    "city" : "Lima",
    "latitude" : "-12.2744",
    "longitude" : "-76.874",
    "description" : "CINEPLANET LURIN",
    "showroomQuantity" : 3,
    "formattedCinemaName" : "cp-lurin",
    "services" : [ ],
    "formatsRate" : [ ],
    "formats" : [ "2D", "REGULAR" ],
    "img" : "https://cdnpe.cineplanet.com.pe/assets/59297797-2ab0-4338-935c-5c2983939d77",
    "loyaltyCode" : "1",
    "showTabsPrime" : false
  }, {
    "ID" : "0000000017",
    "name" : "CP Mall del Sur",
    "phoneNumber" : "016194400",
    "emailAddress" : "",
    "address" : "Carr. Atocongo Lote 1 Mall del",
    "secondAddress" : "San Juan de Miraflores Lima ",
    "city" : "Lima",
    "latitude" : "-12.1544",
    "longitude" : "-76.983",
    "description" : "CINEPLANET MALL DEL SUR",
    "showroomQuantity" : 13,
    "formattedCinemaName" : "cp-mall-del-sur",
    "services" : [ ],
    "formatsRate" : [ ],
    "formats" : [ "2D", "3D", "REGULAR", "SCREENX", "XTREME" ],
    "img" : "https://cdnpe.cineplanet.com.pe/assets/3c9e70d7-db99-4538-b085-c44abb66edd5",
    "loyaltyCode" : "33",
    "showTabsPrime" : false
  }, {
    "ID" : "0000000018",
    "name" : "CP Norte",
    "phoneNumber" : "016194400",
    "emailAddress" : "",
    "address" : "Av. Carlos Izaguirre Cdra 5 ",
    "secondAddress" : "Los Olivos Lima Lima",
    "city" : "Lima",
    "latitude" : "-11.9903",
    "longitude" : "-77.0627",
    "description" : "CINEPLANET CENTRO",
    "showroomQuantity" : 13,
    "formattedCinemaName" : "cp-norte",
    "services" : [ ],
    "formatsRate" : [ ],
    "formats" : [ "2D", "REGULAR", "3D", "XTREME" ],
    "img" : "https://cdnpe.cineplanet.com.pe/assets/5bdd36ef-227e-4493-974c-31b7fd033d55",
    "loyaltyCode" : "9",
    "showTabsPrime" : false
  }, {
    "ID" : "0000000058",
    "name" : "CP Parque La Molina",
    "phoneNumber" : "016194400",
    "emailAddress" : "",
    "address" : "Av. La Molina 2448",
    "secondAddress" : "La Molina - Lima",
    "city" : "Lima",
    "latitude" : "-12.0757",
    "longitude" : "-76.9362",
    "description" : "CINEPLANET PARQUE ARAUCO LA MOLINA",
    "showroomQuantity" : 5,
    "formattedCinemaName" : "cp-parque-la-molina",
    "services" : [ {
      "name" : "Estacionamiento",
      "icon" : "parking",
      "description" : null
    }, {
      "name" : "Dentro de un Mall",
      "icon" : "shopping",
      "description" : null
    } ],
    "formatsRate" : [ ],
    "formats" : [ "2D", "REGULAR", "VIP", "3D" ],
    "img" : "https://cdnpe.cineplanet.com.pe/assets/48cc56df-3714-4823-9f93-0628b4793460",
    "loyaltyCode" : "46",
    "showTabsPrime" : false
  }, {
    "ID" : "0000000019",
    "name" : "CP Piura",
    "phoneNumber" : "016194400",
    "emailAddress" : "",
    "address" : "Jr. Huancavelica 537 - Piura",
    "secondAddress" : "Piura Piura Piura",
    "city" : "Piura",
    "latitude" : "-5.1967",
    "longitude" : "-80.6281",
    "description" : "CINEPLANET PIURA",
    "showroomQuantity" : 6,
    "formattedCinemaName" : "cp-piura",
    "services" : [ ],
    "formatsRate" : [ ],
    "formats" : [ "2D", "REGULAR" ],
    "img" : "https://cdnpe.cineplanet.com.pe/assets/6807471f-f7e9-41e7-bf69-c177c7ed1418",
    "loyaltyCode" : "10",
    "showTabsPrime" : false
  }, {
    "ID" : "0000000020",
    "name" : "CP Piura Real Plaza",
    "phoneNumber" : "016194400",
    "emailAddress" : "",
    "address" : "Av.Sanchez Cerro 234-Z.I",
    "secondAddress" : "Piura Piura Piura",
    "city" : "Piura",
    "latitude" : "-5.1853",
    "longitude" : "-80.6422",
    "description" : "CINEPLANET PIURA REAL PLAZA",
    "showroomQuantity" : 6,
    "formattedCinemaName" : "cp-piura-real-plaza",
    "services" : [ ],
    "formatsRate" : [ ],
    "formats" : [ "2D", "REGULAR" ],
    "img" : "https://cdnpe.cineplanet.com.pe/assets/e34206a0-a940-49a5-96e4-6cd4cd041bfd",
    "loyaltyCode" : "25",
    "showTabsPrime" : false
  }, {
    "ID" : "0000000056",
    "name" : "CP Plaza Santa Catalina",
    "phoneNumber" : "016194400",
    "emailAddress" : "",
    "address" : "AV. CARLOS VILLARÁN NRO 520",
    "secondAddress" : "La Victoria - Lima",
    "city" : "Lima",
    "latitude" : "-12.0896",
    "longitude" : "-77.0199",
    "description" : "CINEPLANET PLAZA SANTA CATALINA",
    "showroomQuantity" : 6,
    "formattedCinemaName" : "cp-plaza-santa-catalina",
    "services" : [ ],
    "formatsRate" : [ ],
    "formats" : [ "2D", "REGULAR", "3D" ],
    "img" : "https://cdnpe.cineplanet.com.pe/assets/8bd07dac-3c09-4d91-96f8-b179c4c13e38",
    "loyaltyCode" : "44",
    "showTabsPrime" : false
  }, {
    "ID" : "0000000021",
    "name" : "CP Primavera",
    "phoneNumber" : "016194400",
    "emailAddress" : "",
    "address" : "Av. Angamos Este 2681",
    "secondAddress" : "Surquillo Lima Lima",
    "city" : "Lima",
    "latitude" : "-12.1114",
    "longitude" : "-77.0021",
    "description" : "CINEPLANET PRIMAVERA",
    "showroomQuantity" : 9,
    "formattedCinemaName" : "cp-primavera",
    "services" : [ ],
    "formatsRate" : [ ],
    "formats" : [ "2D", "REGULAR", "3D" ],
    "img" : "https://cdnpe.cineplanet.com.pe/assets/d9b1183a-09dd-46dc-a6c1-ede58fcd865e",
    "loyaltyCode" : "7",
    "showTabsPrime" : false
  }, {
    "ID" : "0000000022",
    "name" : "CP Pro",
    "phoneNumber" : "016194400",
    "emailAddress" : "",
    "address" : "Av. Alfredo Mendiola Km. 21.5 ",
    "secondAddress" : "San Martin de Porres Lima Lima",
    "city" : "Lima",
    "latitude" : "-11.9403",
    "longitude" : "-77.0703",
    "description" : "CINEPLANET PRO",
    "showroomQuantity" : 6,
    "formattedCinemaName" : "cp-pro",
    "services" : [ ],
    "formatsRate" : [ ],
    "formats" : [ "2D", "REGULAR", "3D" ],
    "img" : "https://cdnpe.cineplanet.com.pe/assets/66af14a7-bf96-4dcd-90b7-c7fdfba067d4",
    "loyaltyCode" : "22",
    "showTabsPrime" : false
  }, {
    "ID" : "0000000043",
    "name" : "CP Pucallpa",
    "phoneNumber" : "016194400",
    "emailAddress" : "",
    "address" : "Av.Centenario s/n M2 365 Lt 16",
    "secondAddress" : "Pucallpa Pucallpa Ucayali",
    "city" : "Pucallpa",
    "latitude" : "-8.3853",
    "longitude" : "-74.5559",
    "description" : "CINEPLANET PUCALLPA",
    "showroomQuantity" : 5,
    "formattedCinemaName" : "cp-pucallpa",
    "services" : [ ],
    "formatsRate" : [ ],
    "formats" : [ "2D", "REGULAR", "3D" ],
    "img" : "https://cdnpe.cineplanet.com.pe/assets/3515d614-3e75-411e-b7ab-10ab27a48c26",
    "loyaltyCode" : "30",
    "showTabsPrime" : false
  }, {
    "ID" : "0000000024",
    "name" : "CP Puno",
    "phoneNumber" : "016194400",
    "emailAddress" : "",
    "address" : "Av. Los Incas s/n ",
    "secondAddress" : "Puno",
    "city" : "Puno",
    "latitude" : "-15.8368",
    "longitude" : "-70.0255",
    "description" : "CINEPLANET PUNO",
    "showroomQuantity" : 4,
    "formattedCinemaName" : "cp-puno",
    "services" : [ ],
    "formatsRate" : [ ],
    "formats" : [ "2D", "REGULAR" ],
    "img" : "https://cdnpe.cineplanet.com.pe/assets/8b4ed0ea-0be8-4b32-b776-d350f0a5c1d3",
    "loyaltyCode" : "2",
    "showTabsPrime" : false
  }, {
    "ID" : "0000000052",
    "name" : "CP Puruchuco",
    "phoneNumber" : "016194400",
    "emailAddress" : "",
    "address" : "AV. Nicolas Ayllon 4770",
    "secondAddress" : "AteLima Lima",
    "city" : "Lima",
    "latitude" : "-11.9886",
    "longitude" : "-76.8189",
    "description" : "CINEPLANET PURUCHUCO",
    "showroomQuantity" : 14,
    "formattedCinemaName" : "cp-puruchuco",
    "services" : [ ],
    "formatsRate" : [ ],
    "formats" : [ "REGULAR", "2D", "3D", "XTREME" ],
    "img" : "https://cdnpe.cineplanet.com.pe/assets/58b24be8-bdac-4583-9a10-7e21edbf9918",
    "loyaltyCode" : "39",
    "showTabsPrime" : false
  }, {
    "ID" : "0000000025",
    "name" : "CP Risso",
    "phoneNumber" : "016194400",
    "emailAddress" : "",
    "address" : "Av. Arequipa 2250 - Lince",
    "secondAddress" : "Lince Lima Lima",
    "city" : "Lima",
    "latitude" : "-12.0865",
    "longitude" : "-77.0347",
    "description" : "CINEPLANET RISSO",
    "showroomQuantity" : 8,
    "formattedCinemaName" : "cp-risso",
    "services" : [ ],
    "formatsRate" : [ ],
    "formats" : [ "2D", "REGULAR", "3D" ],
    "img" : "https://cdnpe.cineplanet.com.pe/assets/13fe12ae-cacb-486f-8268-c07e64705630",
    "loyaltyCode" : "12",
    "showTabsPrime" : false
  }, {
    "ID" : "0000000026",
    "name" : "CP Salaverry",
    "phoneNumber" : "016194400",
    "emailAddress" : "",
    "address" : "Av. San Felipe Salaverry s/n",
    "secondAddress" : "Jesús María Lima Lima",
    "city" : "Lima",
    "latitude" : "-12.0898",
    "longitude" : "-77.0529",
    "description" : "CINEPLANET SALAVERRY",
    "showroomQuantity" : 9,
    "formattedCinemaName" : "cp-salaverry",
    "services" : [ ],
    "formatsRate" : [ ],
    "formats" : [ "2D", "REGULAR", "3D", "PRIME" ],
    "img" : "https://cdnpe.cineplanet.com.pe/assets/08af9870-7ff6-4c4d-8335-7aa89cbe12dd",
    "loyaltyCode" : "28",
    "showTabsPrime" : false
  }, {
    "ID" : "0000000027",
    "name" : "CP San Borja",
    "phoneNumber" : "016194400",
    "emailAddress" : "",
    "address" : "Calle A. Morelli Mz 1 Urb. ",
    "secondAddress" : "San Borja Lima Lima",
    "city" : "Lima",
    "latitude" : "-12.0895",
    "longitude" : "-77.0051",
    "description" : "CINEPLANET SAN BORJA",
    "showroomQuantity" : 10,
    "formattedCinemaName" : "cp-san-borja",
    "services" : [ ],
    "formatsRate" : [ ],
    "formats" : [ "2D", "REGULAR", "3D", "PRIME" ],
    "img" : "https://cdnpe.cineplanet.com.pe/assets/2c645f99-e5d5-4535-b35b-d4e9ab46158d",
    "loyaltyCode" : "23",
    "showTabsPrime" : false
  }, {
    "ID" : "0000000057",
    "name" : "CP San Juan de Lurigancho",
    "phoneNumber" : "016194400",
    "emailAddress" : "",
    "address" : "URB. ZARATE AV. LURIGANCHO 997",
    "secondAddress" : "San Juan de Lurigancho - Lima",
    "city" : "Lima",
    "latitude" : "-12.0162",
    "longitude" : "-76.9987",
    "description" : "CINEPLANET SAN JUAN DE LURIGANCHO",
    "showroomQuantity" : 11,
    "formattedCinemaName" : "cp-san-juan-de-lurigancho",
    "services" : [ ],
    "formatsRate" : [ ],
    "formats" : [ "2D", "REGULAR", "3D", "XTREME" ],
    "img" : "https://cdnpe.cineplanet.com.pe/assets/46e5dc25-34ee-48f6-8dd5-b88ef8808395",
    "loyaltyCode" : "45",
    "showTabsPrime" : false
  }, {
    "ID" : "0000000036",
    "name" : "CP San Miguel",
    "phoneNumber" : "016194400",
    "emailAddress" : "",
    "address" : "Calle Mantaro 356 Cruce",
    "secondAddress" : "San Miguel Lima Lima",
    "city" : "Lima",
    "latitude" : "-12.0757",
    "longitude" : "-77.0836",
    "description" : "CINEPLANET SAN MIGUEL",
    "showroomQuantity" : 20,
    "formattedCinemaName" : "cp-san-miguel",
    "services" : [ {
      "name" : "Dentro de un Mall",
      "icon" : "shopping",
      "description" : "El Cine se encuentra dentro del Centro Comercial \"Plaza San Miguel\""
    }, {
      "name" : "Accesibilidad",
      "icon" : "wheel_chair_light",
      "description" : "El cine cuenta con ascensores y sillas reservadas para todas las personas que posean alguna dificultad de movilidad"
    }, {
      "name" : "Estacionamiento",
      "icon" : "parking",
      "description" : "Estacionamiento por Av. Riva Agüero y Av. Universitaria"
    } ],
    "formatsRate" : [ ],
    "formats" : [ "2D", "REGULAR", "3D", "SCREENX", "PRIME" ],
    "img" : "https://cdnpe.cineplanet.com.pe/assets/547d2468-6547-425d-b647-b4269574ff83",
    "loyaltyCode" : "5",
    "showTabsPrime" : false
  }, {
    "ID" : "0000000044",
    "name" : "CP Santa Clara",
    "phoneNumber" : "016194400",
    "emailAddress" : "",
    "address" : "Av. Nicolas Ayllon 8694 ",
    "secondAddress" : "Ate Vitarte Lima Lima",
    "city" : "Lima",
    "latitude" : "-12.0152",
    "longitude" : "-76.8855",
    "description" : "CINEPLANET SANTA CLARA",
    "showroomQuantity" : 6,
    "formattedCinemaName" : "cp-santa-clara",
    "services" : [ ],
    "formatsRate" : [ ],
    "formats" : [ "2D", "REGULAR", "3D" ],
    "img" : "https://cdnpe.cineplanet.com.pe/assets/7d53dd37-ca0d-4a01-b9f3-be259939b22d",
    "loyaltyCode" : "19",
    "showTabsPrime" : false
  }, {
    "ID" : "0000000049",
    "name" : "CP Santa Clara Qhatu Plaza",
    "phoneNumber" : "016194400",
    "emailAddress" : "",
    "address" : "La Estrella 286, Santa Clara ",
    "secondAddress" : "Ate, Lima Lima",
    "city" : "Lima",
    "latitude" : "-12.0163",
    "longitude" : "-76.8845",
    "description" : "CINEPLANET SANTA CLARA QHATU PLAZA",
    "showroomQuantity" : 4,
    "formattedCinemaName" : "cp-santa-clara-qhatu-plaza",
    "services" : [ ],
    "formatsRate" : [ ],
    "formats" : [ "2D", "REGULAR" ],
    "img" : "https://cdnpe.cineplanet.com.pe/assets/9c09673a-5e96-4b39-a9f5-00edc01c7bf1",
    "loyaltyCode" : "36",
    "showTabsPrime" : false
  }, {
    "ID" : "0000000045",
    "name" : "CP Tacna",
    "phoneNumber" : "016194400",
    "emailAddress" : "",
    "address" : "Calle Cuzco 36 ",
    "secondAddress" : "Tacna Tacna Tacna",
    "city" : "Tacna",
    "latitude" : "-18.0183",
    "longitude" : "-70.2528",
    "description" : "CINEPLANET TACNA",
    "showroomQuantity" : 7,
    "formattedCinemaName" : "cp-tacna",
    "services" : [ ],
    "formatsRate" : [ ],
    "formats" : [ "2D", "3D", "REGULAR" ],
    "img" : "https://cdnpe.cineplanet.com.pe/assets/5639cb36-885f-4dcc-9940-92c3eb75653c",
    "loyaltyCode" : "20",
    "showTabsPrime" : false
  }, {
    "ID" : "0000000030",
    "name" : "CP Trujillo Centro",
    "phoneNumber" : "016194400",
    "emailAddress" : "",
    "address" : "Calle Mariscal de Orbegoso 239",
    "secondAddress" : "Trujillo Trujillo Trujillo",
    "city" : "Trujillo",
    "latitude" : "-8.1094",
    "longitude" : "-79.0299",
    "description" : "CINEPLANET TRUJILLO",
    "showroomQuantity" : 5,
    "formattedCinemaName" : "cp-trujillo-centro",
    "services" : [ ],
    "formatsRate" : [ ],
    "formats" : [ "2D", "REGULAR" ],
    "img" : "https://cdnpe.cineplanet.com.pe/assets/b3c507d2-dc3a-4623-8e8d-39c436a43546",
    "loyaltyCode" : "15",
    "showTabsPrime" : false
  }, {
    "ID" : "0000000046",
    "name" : "CP Ventanilla",
    "phoneNumber" : "016194400",
    "emailAddress" : "",
    "address" : "Av. Nestor Gambeta",
    "secondAddress" : "Ventanilla  Callao  Callao",
    "city" : "Lima",
    "latitude" : "-11.8729",
    "longitude" : "-77.1267",
    "description" : "CINEPLANET VENTANILLA",
    "showroomQuantity" : 5,
    "formattedCinemaName" : "cp-ventanilla",
    "services" : [ ],
    "formatsRate" : [ ],
    "formats" : [ "2D", "REGULAR", "3D" ],
    "img" : "https://cdnpe.cineplanet.com.pe/assets/f040a15f-ddae-4269-8960-c1edaf59fcb4",
    "loyaltyCode" : "29",
    "showTabsPrime" : false
  }, {
    "ID" : "0000000047",
    "name" : "CP Villa El Salvador",
    "phoneNumber" : "016194400",
    "emailAddress" : "",
    "address" : "Parcel H del Parque Industrial",
    "secondAddress" : "Villa el Salvador Lima Lima",
    "city" : "Lima",
    "latitude" : "-12.2021",
    "longitude" : "-76.9335",
    "description" : "CINEPLANET VILLA EL SALVADOR",
    "showroomQuantity" : 6,
    "formattedCinemaName" : "cp-villa-el-salvador",
    "services" : [ ],
    "formatsRate" : [ ],
    "formats" : [ "2D", "REGULAR", "3D" ],
    "img" : "https://cdnpe.cineplanet.com.pe/assets/31ccfcc2-e202-4096-b495-e3cce0e3478d",
    "loyaltyCode" : "35",
    "showTabsPrime" : false
  }, {
    "ID" : "0000000048",
    "name" : "CP Villa María del Triunfo",
    "phoneNumber" : "016194400",
    "emailAddress" : "",
    "address" : "Av. Pachacutec 3721",
    "secondAddress" : "Villa María Lima Lima",
    "city" : "Lima",
    "latitude" : "-12.1805",
    "longitude" : "-76.9425",
    "description" : "CINEPLANET VILLA MARIA",
    "showroomQuantity" : 7,
    "formattedCinemaName" : "cp-villa-maria-del-triunfo",
    "services" : [ ],
    "formatsRate" : [ ],
    "formats" : [ "2D", "REGULAR", "3D" ],
    "img" : "https://cdnpe.cineplanet.com.pe/assets/4c94f814-2698-48ea-9736-314a536fbf94",
    "loyaltyCode" : "34",
    "showTabsPrime" : false
  } ]
}